[
    {
        "type": "stop",
        "id": "900000100003",
        "name": "S+U Alexanderplatz",
        "location": {
            "type": "location",
            "latitude": 52.521508,
            "longitude": 13.411267
        },
        "products": {
            "suburban": true,
            "subway": false,
            "tram": false,
            "bus": true,
            "ferry": false,
            "express": false,
            "regional": true
        }
    },
    {
        "type": "stop",
        "id": "900000100024",
        "name": "S+U Alexanderplatz/Dircksenstr.",
        "location": {
            "type": "location",
            "latitude": 52.521823,
            "longitude": 13.411232
        },
        "products": {
            "suburban": false,
            "subway": false,
            "tram": true,
            "bus": false,
            "ferry": false,
            "express": false,
            "regional": false
        }
    },
    {
        "type": "stop",
        "id": "900000100026",
        "name": "S+U Alexanderplatz/Gontardstr.",
        "location": {
            "type": "location",
            "latitude": 52.521059,
            "longitude": 13.41125
        },
        "products": {
            "suburban": false,
            "subway": false,
            "tram": true,
            "bus": false,
            "ferry": false,
            "express": false,
            "regional": false
        }
    },
    {
        "type": "stop",
        "id": "900000100005",
        "name": "U Alexanderplatz [Tram]",
        "location": {
            "type": "location",
            "latitude": 52.522389,
            "longitude": 13.414495
        },
        "products": {
            "suburban": false,
            "subway": false,
            "tram": true,
            "bus": false,
            "ferry": false,
            "express": false,
            "regional": false
        }
    },
    {
        "type": "stop",
        "id": "900000100031",
        "name": "S+U Alexanderplatz/Memhardstr.",
        "location": {
            "type": "location",
            "latitude": 52.523099,
            "longitude": 13.410962
        },
        "products": {
            "suburban": false,
            "subway": false,
            "tram": false,
            "bus": true,
            "ferry": false,
            "express": false,
            "regional": false
        }
    },
    {
        "type": "stop",
        "id": "900000100006",
        "name": "S+U Alexanderplatz/Grunerstr.",
        "location": {
            "type": "location",
            "latitude": 52.520412,
            "longitude": 13.414432
        },
        "products": {
            "suburban": false,
            "subway": false,
            "tram": false,
            "bus": true,
            "ferry": false,
            "express": false,
            "regional": false
        }
    },
    {
        "type": "location",
        "latitude": 52.523549,
        "longitude": 13.418441,
        "name": "Berlin, Holiday Inn Centre Alexanderplatz****",
        "id": "900980709"
    },
    {
        "type": "location",
        "latitude": 52.524556,
        "longitude": 13.420266,
        "name": "Berlin, Hotel Agon am Alexanderplatz",
        "id": "900980176"
    },
    {
        "type": "location",
        "latitude": 52.524358,
        "longitude": 13.420445,
        "name": "Berlin, Mercure Hotel Berlin am Alexanderplatz***",
        "id": "900980824"
    },
    {
        "type": "location",
        "latitude": 52.523306,
        "longitude": 13.43704,
        "name": "Berlin, NH Hotel Berlin-Alexanderplatz****",
        "id": "900980240"
    }
]